[
  {
    "name": "Algeria",
    "isoCode2": "DZ",
    "isoCode3": "DZA",
    "region": "NORTH_AFRICA",
    "capital": "Algiers",
    "population": 45400000,
    "youthPopulation": 13620000,
    "area": 2381741,
    "currency": "DZD",
    "languages": ["Arabic", "Berber", "French"],
    "economicBlocs": ["AU", "AMU"],
    "latitude": 28.0339,
    "longitude": 1.6596,
    "flagEmoji": "\ud83c\udde9\ud83c\uddff"
  },
  {
    "name": "Egypt",
    "isoCode2": "EG",
    "isoCode3": "EGY",
    "region": "NORTH_AFRICA",
    "capital": "Cairo",
    "population": 105000000,
    "youthPopulation": 34650000,
    "area": 1002450,
    "currency": "EGP",
    "languages": ["Arabic"],
    "economicBlocs": ["AU", "COMESA"],
    "latitude": 26.8206,
    "longitude": 30.8025,
    "flagEmoji": "\ud83c\uddea\ud83c\uddec"
  },
  {
    "name": "Libya",
    "isoCode2": "LY",
    "isoCode3": "LBY",
    "region": "NORTH_AFRICA",
    "capital": "Tripoli",
    "population": 7000000,
    "youthPopulation": 2240000,
    "area": 1759540,
    "currency": "LYD",
    "languages": ["Arabic"],
    "economicBlocs": ["AU", "AMU"],
    "latitude": 26.3351,
    "longitude": 17.2283,
    "flagEmoji": "\ud83c\uddf1\ud83c\uddfe"
  },
  {
    "name": "Mauritania",
    "isoCode2": "MR",
    "isoCode3": "MRT",
    "region": "NORTH_AFRICA",
    "capital": "Nouakchott",
    "population": 4800000,
    "youthPopulation": 1680000,
    "area": 1030700,
    "currency": "MRU",
    "languages": ["Arabic", "French"],
    "economicBlocs": ["AU", "AMU"],
    "latitude": 21.0079,
    "longitude": -10.9408,
    "flagEmoji": "\ud83c\uddf2\ud83c\uddf7"
  },
  {
    "name": "Morocco",
    "isoCode2": "MA",
    "isoCode3": "MAR",
    "region": "NORTH_AFRICA",
    "capital": "Rabat",
    "population": 37000000,
    "youthPopulation": 11100000,
    "area": 446550,
    "currency": "MAD",
    "languages": ["Arabic", "Berber", "French"],
    "economicBlocs": ["AU", "AMU"],
    "latitude": 31.7917,
    "longitude": -7.0926,
    "flagEmoji": "\ud83c\uddf2\ud83c\udde6"
  },
  {
    "name": "Tunisia",
    "isoCode2": "TN",
    "isoCode3": "TUN",
    "region": "NORTH_AFRICA",
    "capital": "Tunis",
    "population": 12000000,
    "youthPopulation": 3600000,
    "area": 163610,
    "currency": "TND",
    "languages": ["Arabic", "French"],
    "economicBlocs": ["AU", "AMU"],
    "latitude": 33.8869,
    "longitude": 9.5375,
    "flagEmoji": "\ud83c\uddf9\ud83c\uddf3"
  },
  {
    "name": "Benin",
    "isoCode2": "BJ",
    "isoCode3": "BEN",
    "region": "WEST_AFRICA",
    "capital": "Porto-Novo",
    "population": 13350000,
    "youthPopulation": 4670000,
    "area": 112622,
    "currency": "XOF",
    "languages": ["French"],
    "economicBlocs": ["AU", "ECOWAS"],
    "latitude": 9.3077,
    "longitude": 2.3158,
    "flagEmoji": "\ud83c\udde7\ud83c\uddef"
  },
  {
    "name": "Burkina Faso",
    "isoCode2": "BF",
    "isoCode3": "BFA",
    "region": "WEST_AFRICA",
    "capital": "Ouagadougou",
    "population": 22670000,
    "youthPopulation": 7934000,
    "area": 274200,
    "currency": "XOF",
    "languages": ["French"],
    "economicBlocs": ["AU", "ECOWAS"],
    "latitude": 12.2383,
    "longitude": -1.5616,
    "flagEmoji": "\ud83c\udde7\ud83c\uddeb"
  },
  {
    "name": "Cabo Verde",
    "isoCode2": "CV",
    "isoCode3": "CPV",
    "region": "WEST_AFRICA",
    "capital": "Praia",
    "population": 590000,
    "youthPopulation": 177000,
    "area": 4033,
    "currency": "CVE",
    "languages": ["Portuguese"],
    "economicBlocs": ["AU", "ECOWAS"],
    "latitude": 16.5388,
    "longitude": -23.0418,
    "flagEmoji": "\ud83c\udde8\ud83c\uddfb"
  },
  {
    "name": "Cote d'Ivoire",
    "isoCode2": "CI",
    "isoCode3": "CIV",
    "region": "WEST_AFRICA",
    "capital": "Yamoussoukro",
    "population": 28160000,
    "youthPopulation": 9856000,
    "area": 322463,
    "currency": "XOF",
    "languages": ["French"],
    "economicBlocs": ["AU", "ECOWAS"],
    "latitude": 7.5400,
    "longitude": -5.5471,
    "flagEmoji": "\ud83c\udde8\ud83c\uddee"
  },
  {
    "name": "Gambia",
    "isoCode2": "GM",
    "isoCode3": "GMB",
    "region": "WEST_AFRICA",
    "capital": "Banjul",
    "population": 2640000,
    "youthPopulation": 924000,
    "area": 11295,
    "currency": "GMD",
    "languages": ["English"],
    "economicBlocs": ["AU", "ECOWAS"],
    "latitude": 13.4432,
    "longitude": -15.3101,
    "flagEmoji": "\ud83c\uddec\ud83c\uddf2"
  },
  {
    "name": "Ghana",
    "isoCode2": "GH",
    "isoCode3": "GHA",
    "region": "WEST_AFRICA",
    "capital": "Accra",
    "population": 33470000,
    "youthPopulation": 11714000,
    "area": 238533,
    "currency": "GHS",
    "languages": ["English"],
    "economicBlocs": ["AU", "ECOWAS"],
    "latitude": 7.9465,
    "longitude": -1.0232,
    "flagEmoji": "\ud83c\uddec\ud83c\udded"
  },
  {
    "name": "Guinea",
    "isoCode2": "GN",
    "isoCode3": "GIN",
    "region": "WEST_AFRICA",
    "capital": "Conakry",
    "population": 13860000,
    "youthPopulation": 4851000,
    "area": 245857,
    "currency": "GNF",
    "languages": ["French"],
    "economicBlocs": ["AU", "ECOWAS"],
    "latitude": 9.9456,
    "longitude": -9.6966,
    "flagEmoji": "\ud83c\uddec\ud83c\uddf3"
  },
  {
    "name": "Guinea-Bissau",
    "isoCode2": "GW",
    "isoCode3": "GNB",
    "region": "WEST_AFRICA",
    "capital": "Bissau",
    "population": 2060000,
    "youthPopulation": 721000,
    "area": 36125,
    "currency": "XOF",
    "languages": ["Portuguese"],
    "economicBlocs": ["AU", "ECOWAS"],
    "latitude": 11.8037,
    "longitude": -15.1804,
    "flagEmoji": "\ud83c\uddec\ud83c\uddfc"
  },
  {
    "name": "Liberia",
    "isoCode2": "LR",
    "isoCode3": "LBR",
    "region": "WEST_AFRICA",
    "capital": "Monrovia",
    "population": 5300000,
    "youthPopulation": 1855000,
    "area": 111369,
    "currency": "LRD",
    "languages": ["English"],
    "economicBlocs": ["AU", "ECOWAS"],
    "latitude": 6.4281,
    "longitude": -9.4295,
    "flagEmoji": "\ud83c\uddf1\ud83c\uddf7"
  },
  {
    "name": "Mali",
    "isoCode2": "ML",
    "isoCode3": "MLI",
    "region": "WEST_AFRICA",
    "capital": "Bamako",
    "population": 22590000,
    "youthPopulation": 7906000,
    "area": 1240192,
    "currency": "XOF",
    "languages": ["French"],
    "economicBlocs": ["AU", "ECOWAS"],
    "latitude": 17.5707,
    "longitude": -3.9962,
    "flagEmoji": "\ud83c\uddf2\ud83c\uddf1"
  },
  {
    "name": "Niger",
    "isoCode2": "NE",
    "isoCode3": "NER",
    "region": "WEST_AFRICA",
    "capital": "Niamey",
    "population": 26210000,
    "youthPopulation": 9174000,
    "area": 1267000,
    "currency": "XOF",
    "languages": ["French"],
    "economicBlocs": ["AU", "ECOWAS"],
    "latitude": 17.6078,
    "longitude": 8.0817,
    "flagEmoji": "\ud83c\uddf3\ud83c\uddea"
  },
  {
    "name": "Nigeria",
    "isoCode2": "NG",
    "isoCode3": "NGA",
    "region": "WEST_AFRICA",
    "capital": "Abuja",
    "population": 220000000,
    "youthPopulation": 77000000,
    "area": 923768,
    "currency": "NGN",
    "languages": ["English"],
    "economicBlocs": ["AU", "ECOWAS"],
    "latitude": 9.0820,
    "longitude": 8.6753,
    "flagEmoji": "\ud83c\uddf3\ud83c\uddec"
  },
  {
    "name": "Senegal",
    "isoCode2": "SN",
    "isoCode3": "SEN",
    "region": "WEST_AFRICA",
    "capital": "Dakar",
    "population": 17740000,
    "youthPopulation": 6209000,
    "area": 196722,
    "currency": "XOF",
    "languages": ["French"],
    "economicBlocs": ["AU", "ECOWAS"],
    "latitude": 14.4974,
    "longitude": -14.4524,
    "flagEmoji": "\ud83c\uddf8\ud83c\uddf3"
  },
  {
    "name": "Sierra Leone",
    "isoCode2": "SL",
    "isoCode3": "SLE",
    "region": "WEST_AFRICA",
    "capital": "Freetown",
    "population": 8420000,
    "youthPopulation": 2947000,
    "area": 71740,
    "currency": "SLE",
    "languages": ["English"],
    "economicBlocs": ["AU", "ECOWAS"],
    "latitude": 8.4606,
    "longitude": -11.7799,
    "flagEmoji": "\ud83c\uddf8\ud83c\uddf1"
  },
  {
    "name": "Togo",
    "isoCode2": "TG",
    "isoCode3": "TGO",
    "region": "WEST_AFRICA",
    "capital": "Lome",
    "population": 8850000,
    "youthPopulation": 3098000,
    "area": 56785,
    "currency": "XOF",
    "languages": ["French"],
    "economicBlocs": ["AU", "ECOWAS"],
    "latitude": 8.6195,
    "longitude": 0.8248,
    "flagEmoji": "\ud83c\uddf9\ud83c\uddec"
  },
  {
    "name": "Cameroon",
    "isoCode2": "CM",
    "isoCode3": "CMR",
    "region": "CENTRAL_AFRICA",
    "capital": "Yaounde",
    "population": 27910000,
    "youthPopulation": 9769000,
    "area": 475442,
    "currency": "XAF",
    "languages": ["French", "English"],
    "economicBlocs": ["AU", "CEMAC"],
    "latitude": 7.3697,
    "longitude": 12.3547,
    "flagEmoji": "\ud83c\udde8\ud83c\uddf2"
  },
  {
    "name": "Central African Republic",
    "isoCode2": "CF",
    "isoCode3": "CAF",
    "region": "CENTRAL_AFRICA",
    "capital": "Bangui",
    "population": 5450000,
    "youthPopulation": 1908000,
    "area": 622984,
    "currency": "XAF",
    "languages": ["French", "Sango"],
    "economicBlocs": ["AU", "CEMAC"],
    "latitude": 6.6111,
    "longitude": 20.9394,
    "flagEmoji": "\ud83c\udde8\ud83c\uddeb"
  },
  {
    "name": "Chad",
    "isoCode2": "TD",
    "isoCode3": "TCD",
    "region": "CENTRAL_AFRICA",
    "capital": "N'Djamena",
    "population": 17720000,
    "youthPopulation": 6202000,
    "area": 1284000,
    "currency": "XAF",
    "languages": ["French", "Arabic"],
    "economicBlocs": ["AU", "CEMAC"],
    "latitude": 15.4542,
    "longitude": 18.7322,
    "flagEmoji": "\ud83c\uddf9\ud83c\udde9"
  },
  {
    "name": "Congo",
    "isoCode2": "CG",
    "isoCode3": "COG",
    "region": "CENTRAL_AFRICA",
    "capital": "Brazzaville",
    "population": 5970000,
    "youthPopulation": 2090000,
    "area": 342000,
    "currency": "XAF",
    "languages": ["French"],
    "economicBlocs": ["AU", "CEMAC"],
    "latitude": -0.2280,
    "longitude": 15.8277,
    "flagEmoji": "\ud83c\udde8\ud83c\uddec"
  },
  {
    "name": "DR Congo",
    "isoCode2": "CD",
    "isoCode3": "COD",
    "region": "CENTRAL_AFRICA",
    "capital": "Kinshasa",
    "population": 100000000,
    "youthPopulation": 35000000,
    "area": 2344858,
    "currency": "CDF",
    "languages": ["French"],
    "economicBlocs": ["AU", "COMESA", "EAC", "SADC"],
    "latitude": -4.0383,
    "longitude": 21.7587,
    "flagEmoji": "\ud83c\udde8\ud83c\udde9"
  },
  {
    "name": "Equatorial Guinea",
    "isoCode2": "GQ",
    "isoCode3": "GNQ",
    "region": "CENTRAL_AFRICA",
    "capital": "Malabo",
    "population": 1670000,
    "youthPopulation": 568000,
    "area": 28051,
    "currency": "XAF",
    "languages": ["Spanish", "French", "Portuguese"],
    "economicBlocs": ["AU", "CEMAC"],
    "latitude": 1.6508,
    "longitude": 10.2679,
    "flagEmoji": "\ud83c\uddec\ud83c\uddf6"
  },
  {
    "name": "Gabon",
    "isoCode2": "GA",
    "isoCode3": "GAB",
    "region": "CENTRAL_AFRICA",
    "capital": "Libreville",
    "population": 2390000,
    "youthPopulation": 764800,
    "area": 267668,
    "currency": "XAF",
    "languages": ["French"],
    "economicBlocs": ["AU", "CEMAC"],
    "latitude": -0.8037,
    "longitude": 11.6094,
    "flagEmoji": "\ud83c\uddec\ud83c\udde6"
  },
  {
    "name": "Sao Tome and Principe",
    "isoCode2": "ST",
    "isoCode3": "STP",
    "region": "CENTRAL_AFRICA",
    "capital": "Sao Tome",
    "population": 225000,
    "youthPopulation": 78750,
    "area": 964,
    "currency": "STN",
    "languages": ["Portuguese"],
    "economicBlocs": ["AU"],
    "latitude": 0.1864,
    "longitude": 6.6131,
    "flagEmoji": "\ud83c\uddf8\ud83c\uddf9"
  },
  {
    "name": "Burundi",
    "isoCode2": "BI",
    "isoCode3": "BDI",
    "region": "EAST_AFRICA",
    "capital": "Gitega",
    "population": 12890000,
    "youthPopulation": 4512000,
    "area": 27834,
    "currency": "BIF",
    "languages": ["Kirundi", "French", "English"],
    "economicBlocs": ["AU", "EAC", "COMESA"],
    "latitude": -3.3731,
    "longitude": 29.9189,
    "flagEmoji": "\ud83c\udde7\ud83c\uddee"
  },
  {
    "name": "Comoros",
    "isoCode2": "KM",
    "isoCode3": "COM",
    "region": "EAST_AFRICA",
    "capital": "Moroni",
    "population": 900000,
    "youthPopulation": 315000,
    "area": 2235,
    "currency": "KMF",
    "languages": ["Comorian", "Arabic", "French"],
    "economicBlocs": ["AU", "COMESA"],
    "latitude": -11.6455,
    "longitude": 43.3333,
    "flagEmoji": "\ud83c\uddf0\ud83c\uddf2"
  },
  {
    "name": "Djibouti",
    "isoCode2": "DJ",
    "isoCode3": "DJI",
    "region": "EAST_AFRICA",
    "capital": "Djibouti",
    "population": 1120000,
    "youthPopulation": 370000,
    "area": 23200,
    "currency": "DJF",
    "languages": ["French", "Arabic"],
    "economicBlocs": ["AU", "IGAD", "COMESA"],
    "latitude": 11.8251,
    "longitude": 42.5903,
    "flagEmoji": "\ud83c\udde9\ud83c\uddef"
  },
  {
    "name": "Eritrea",
    "isoCode2": "ER",
    "isoCode3": "ERI",
    "region": "EAST_AFRICA",
    "capital": "Asmara",
    "population": 3620000,
    "youthPopulation": 1267000,
    "area": 117600,
    "currency": "ERN",
    "languages": ["Tigrinya", "Arabic", "English"],
    "economicBlocs": ["AU", "IGAD"],
    "latitude": 15.1794,
    "longitude": 39.7823,
    "flagEmoji": "\ud83c\uddea\ud83c\uddf7"
  },
  {
    "name": "Ethiopia",
    "isoCode2": "ET",
    "isoCode3": "ETH",
    "region": "EAST_AFRICA",
    "capital": "Addis Ababa",
    "population": 120000000,
    "youthPopulation": 42000000,
    "area": 1104300,
    "currency": "ETB",
    "languages": ["Amharic"],
    "economicBlocs": ["AU", "IGAD", "COMESA"],
    "latitude": 9.1450,
    "longitude": 40.4897,
    "flagEmoji": "\ud83c\uddea\ud83c\uddf9"
  },
  {
    "name": "Kenya",
    "isoCode2": "KE",
    "isoCode3": "KEN",
    "region": "EAST_AFRICA",
    "capital": "Nairobi",
    "population": 55000000,
    "youthPopulation": 19250000,
    "area": 580367,
    "currency": "KES",
    "languages": ["Swahili", "English"],
    "economicBlocs": ["AU", "EAC", "COMESA", "IGAD"],
    "latitude": -0.0236,
    "longitude": 37.9062,
    "flagEmoji": "\ud83c\uddf0\ud83c\uddea"
  },
  {
    "name": "Madagascar",
    "isoCode2": "MG",
    "isoCode3": "MDG",
    "region": "EAST_AFRICA",
    "capital": "Antananarivo",
    "population": 29610000,
    "youthPopulation": 10364000,
    "area": 587041,
    "currency": "MGA",
    "languages": ["Malagasy", "French"],
    "economicBlocs": ["AU", "COMESA", "SADC"],
    "latitude": -18.7669,
    "longitude": 46.8691,
    "flagEmoji": "\ud83c\uddf2\ud83c\uddec"
  },
  {
    "name": "Malawi",
    "isoCode2": "MW",
    "isoCode3": "MWI",
    "region": "EAST_AFRICA",
    "capital": "Lilongwe",
    "population": 20400000,
    "youthPopulation": 7140000,
    "area": 118484,
    "currency": "MWK",
    "languages": ["English", "Chichewa"],
    "economicBlocs": ["AU", "COMESA", "SADC"],
    "latitude": -13.2543,
    "longitude": 34.3015,
    "flagEmoji": "\ud83c\uddf2\ud83c\uddfc"
  },
  {
    "name": "Mozambique",
    "isoCode2": "MZ",
    "isoCode3": "MOZ",
    "region": "EAST_AFRICA",
    "capital": "Maputo",
    "population": 33000000,
    "youthPopulation": 11550000,
    "area": 801590,
    "currency": "MZN",
    "languages": ["Portuguese"],
    "economicBlocs": ["AU", "SADC", "COMESA"],
    "latitude": -18.6657,
    "longitude": 35.5296,
    "flagEmoji": "\ud83c\uddf2\ud83c\uddff"
  },
  {
    "name": "Rwanda",
    "isoCode2": "RW",
    "isoCode3": "RWA",
    "region": "EAST_AFRICA",
    "capital": "Kigali",
    "population": 13600000,
    "youthPopulation": 4760000,
    "area": 26338,
    "currency": "RWF",
    "languages": ["Kinyarwanda", "French", "English", "Swahili"],
    "economicBlocs": ["AU", "EAC", "COMESA"],
    "latitude": -1.9403,
    "longitude": 29.8739,
    "flagEmoji": "\ud83c\uddf7\ud83c\uddfc"
  },
  {
    "name": "Somalia",
    "isoCode2": "SO",
    "isoCode3": "SOM",
    "region": "EAST_AFRICA",
    "capital": "Mogadishu",
    "population": 17600000,
    "youthPopulation": 6160000,
    "area": 637657,
    "currency": "SOS",
    "languages": ["Somali", "Arabic"],
    "economicBlocs": ["AU", "IGAD"],
    "latitude": 5.1521,
    "longitude": 46.1996,
    "flagEmoji": "\ud83c\uddf8\ud83c\uddf4"
  },
  {
    "name": "Sudan",
    "isoCode2": "SD",
    "isoCode3": "SDN",
    "region": "EAST_AFRICA",
    "capital": "Khartoum",
    "population": 47960000,
    "youthPopulation": 16786000,
    "area": 1861484,
    "currency": "SDG",
    "languages": ["Arabic", "English"],
    "economicBlocs": ["AU", "IGAD", "COMESA"],
    "latitude": 12.8628,
    "longitude": 30.2176,
    "flagEmoji": "\ud83c\uddf8\ud83c\udde9"
  },
  {
    "name": "South Sudan",
    "isoCode2": "SS",
    "isoCode3": "SSD",
    "region": "EAST_AFRICA",
    "capital": "Juba",
    "population": 11400000,
    "youthPopulation": 3990000,
    "area": 619745,
    "currency": "SSP",
    "languages": ["English"],
    "economicBlocs": ["AU", "EAC", "IGAD"],
    "latitude": 6.8770,
    "longitude": 31.3070,
    "flagEmoji": "\ud83c\uddf8\ud83c\uddf8"
  },
  {
    "name": "Tanzania",
    "isoCode2": "TZ",
    "isoCode3": "TZA",
    "region": "EAST_AFRICA",
    "capital": "Dodoma",
    "population": 63000000,
    "youthPopulation": 22050000,
    "area": 945087,
    "currency": "TZS",
    "languages": ["Swahili", "English"],
    "economicBlocs": ["AU", "EAC", "SADC"],
    "latitude": -6.3690,
    "longitude": 34.8888,
    "flagEmoji": "\ud83c\uddf9\ud83c\uddff"
  },
  {
    "name": "Uganda",
    "isoCode2": "UG",
    "isoCode3": "UGA",
    "region": "EAST_AFRICA",
    "capital": "Kampala",
    "population": 47000000,
    "youthPopulation": 16450000,
    "area": 241038,
    "currency": "UGX",
    "languages": ["English", "Swahili"],
    "economicBlocs": ["AU", "EAC", "COMESA", "IGAD"],
    "latitude": 1.3733,
    "longitude": 32.2903,
    "flagEmoji": "\ud83c\uddfa\ud83c\uddec"
  },
  {
    "name": "Angola",
    "isoCode2": "AO",
    "isoCode3": "AGO",
    "region": "SOUTHERN_AFRICA",
    "capital": "Luanda",
    "population": 35590000,
    "youthPopulation": 12457000,
    "area": 1246700,
    "currency": "AOA",
    "languages": ["Portuguese"],
    "economicBlocs": ["AU", "SADC"],
    "latitude": -11.2027,
    "longitude": 17.8739,
    "flagEmoji": "\ud83c\udde6\ud83c\uddf4"
  },
  {
    "name": "Botswana",
    "isoCode2": "BW",
    "isoCode3": "BWA",
    "region": "SOUTHERN_AFRICA",
    "capital": "Gaborone",
    "population": 2630000,
    "youthPopulation": 789000,
    "area": 581730,
    "currency": "BWP",
    "languages": ["English", "Setswana"],
    "economicBlocs": ["AU", "SADC"],
    "latitude": -22.3285,
    "longitude": 24.6849,
    "flagEmoji": "\ud83c\udde7\ud83c\uddfc"
  },
  {
    "name": "Eswatini",
    "isoCode2": "SZ",
    "isoCode3": "SWZ",
    "region": "SOUTHERN_AFRICA",
    "capital": "Mbabane",
    "population": 1200000,
    "youthPopulation": 420000,
    "area": 17364,
    "currency": "SZL",
    "languages": ["English", "Swati"],
    "economicBlocs": ["AU", "SADC", "COMESA"],
    "latitude": -26.5225,
    "longitude": 31.4659,
    "flagEmoji": "\ud83c\uddf8\ud83c\uddff"
  },
  {
    "name": "Lesotho",
    "isoCode2": "LS",
    "isoCode3": "LSO",
    "region": "SOUTHERN_AFRICA",
    "capital": "Maseru",
    "population": 2280000,
    "youthPopulation": 798000,
    "area": 30355,
    "currency": "LSL",
    "languages": ["Sesotho", "English"],
    "economicBlocs": ["AU", "SADC"],
    "latitude": -29.6100,
    "longitude": 28.2336,
    "flagEmoji": "\ud83c\uddf1\ud83c\uddf8"
  },
  {
    "name": "Mauritius",
    "isoCode2": "MU",
    "isoCode3": "MUS",
    "region": "SOUTHERN_AFRICA",
    "capital": "Port Louis",
    "population": 1270000,
    "youthPopulation": 381000,
    "area": 2040,
    "currency": "MUR",
    "languages": ["English", "French", "Creole"],
    "economicBlocs": ["AU", "SADC", "COMESA"],
    "latitude": -20.3484,
    "longitude": 57.5522,
    "flagEmoji": "\ud83c\uddf2\ud83c\uddfa"
  },
  {
    "name": "Namibia",
    "isoCode2": "NA",
    "isoCode3": "NAM",
    "region": "SOUTHERN_AFRICA",
    "capital": "Windhoek",
    "population": 2600000,
    "youthPopulation": 884000,
    "area": 825615,
    "currency": "NAD",
    "languages": ["English"],
    "economicBlocs": ["AU", "SADC"],
    "latitude": -22.9576,
    "longitude": 18.4904,
    "flagEmoji": "\ud83c\uddf3\ud83c\udde6"
  },
  {
    "name": "Seychelles",
    "isoCode2": "SC",
    "isoCode3": "SYC",
    "region": "SOUTHERN_AFRICA",
    "capital": "Victoria",
    "population": 100000,
    "youthPopulation": 30000,
    "area": 459,
    "currency": "SCR",
    "languages": ["Seychellois Creole", "English", "French"],
    "economicBlocs": ["AU", "SADC", "COMESA"],
    "latitude": -4.6796,
    "longitude": 55.4920,
    "flagEmoji": "\ud83c\uddf8\ud83c\udde8"
  },
  {
    "name": "South Africa",
    "isoCode2": "ZA",
    "isoCode3": "ZAF",
    "region": "SOUTHERN_AFRICA",
    "capital": "Pretoria",
    "population": 60000000,
    "youthPopulation": 18000000,
    "area": 1221037,
    "currency": "ZAR",
    "languages": ["Zulu", "Xhosa", "Afrikaans", "English"],
    "economicBlocs": ["AU", "SADC"],
    "latitude": -30.5595,
    "longitude": 22.9375,
    "flagEmoji": "\ud83c\uddff\ud83c\udde6"
  },
  {
    "name": "Zambia",
    "isoCode2": "ZM",
    "isoCode3": "ZMB",
    "region": "SOUTHERN_AFRICA",
    "capital": "Lusaka",
    "population": 20020000,
    "youthPopulation": 7007000,
    "area": 752612,
    "currency": "ZMW",
    "languages": ["English"],
    "economicBlocs": ["AU", "SADC", "COMESA"],
    "latitude": -13.1339,
    "longitude": 27.8493,
    "flagEmoji": "\ud83c\uddff\ud83c\uddf2"
  },
  {
    "name": "Zimbabwe",
    "isoCode2": "ZW",
    "isoCode3": "ZWE",
    "region": "SOUTHERN_AFRICA",
    "capital": "Harare",
    "population": 16320000,
    "youthPopulation": 5712000,
    "area": 390757,
    "currency": "ZWL",
    "languages": ["English", "Shona", "Ndebele"],
    "economicBlocs": ["AU", "SADC", "COMESA"],
    "latitude": -19.0154,
    "longitude": 29.1549,
    "flagEmoji": "\ud83c\uddff\ud83c\uddfc"
  }
]
